name,address,nearest_station,genres,hours,holiday,price_range,latitude,longitude,place_id,plus_code,homepage_url,sns_url,description,payment_methods,parking
NEW YORK JOE EXCHANGE 下北沢店,東京都世田谷区北沢3-26-4,下北沢駅,ヴィンテージ,12:00-20:00,定休日なし,¥2000~3000,35.6639104,139.6681502,ChIJI_aZ32rzGGARhjQlOeV4oB0,8Q7XMM79+H7,http://newyorkjoeexchange.com/,https://www.instagram.com/newyorkjoeexchange/,元銭湯を改装したユニークな内装の有名店。買取・交換も行う。,現金・クレジット・電子マネー
FLAMINGO 下北沢店,東京都世田谷区北沢2-25-12,下北沢駅,US古着,12:00-21:00,定休日なし,¥3000~,35.6626969,139.6670597,ChIJJfSKMzPzGGAR8SkxrJD5qoc,8Q7XMM78+3R,http://www.tippirag.com/flamingo,https://www.instagram.com/flamingo_shimokitazawa/,赤いネオン管が目印。初心者でも入りやすい定番店。
FLAMINGO 下北沢2nd店,東京都世田谷区北沢2-37-2,下北沢駅,"レディース,ヴィンテージ,小物,アウトドア",12:00-21:00,定休日なし,¥3000~,35.6633937,139.6671466,ChIJi4xe43XzGGARrGb84oiJw7Q,8Q7XMM78+9C,http://www.tippirag.com/flamingo,https://www.instagram.com/flamingo_shimokitazawa/,レディース古着に特化したフラミンゴの系列店。
FLAMINGO 下北沢3rd店,東京都世田谷区北沢2-30-10,下北沢駅,"ヴィンテージ,小物,アウトドア",12:00-21:00,定休日なし,¥3000~,35.663188,139.6673851,ChIJE9s9RQDzGGAR0AZCAouiLO4,8Q7XMM78+6X,http://www.tippirag.com/flamingo,https://www.instagram.com/flamingo_3rd/?hl=ja,アメカジも多いフラミンゴの系列店。
WEGO VINTAGE下北沢店,東京都世田谷区北沢2-29-3,下北沢駅,レギュラー,11:00-21:00,定休日なし,¥2000~,35.6629991,139.6665418,ChIJ923ya2vzGGARELac70tm-9A,8Q7XMM78+5J,https://www.wego.jp/,https://www.instagram.com/wego_shimokita/,トレンドの古着を安く手に入れられる大型店。
Desert Snow 下北沢1号店,東京都世田谷区北沢2-30-14,下北沢駅,ヴィンテージ,11:00-20:00,定休日なし,¥4000~,35.66287519999999,139.6676734,ChIJq6rWBWvzGGAReRS6S_ybxmM,8Q7XMM78+6X,http://www.desertsnow.co.jp/,https://www.instagram.com/desertsnow_shimokita/,町田発祥の名店。物量と質のバランスが良い。
DESERTSNOW second hand vintage clothing store 古着屋 下北沢ガーデン店,東京都世田谷区北沢2-26-14,下北沢駅,ヴィンテージ・レギュラー・きれいめ・カジュアル,12:00-20:00,日曜日,¥3000~,35.6625507,139.6661867,ChIJlQc_yiPzGGARvEq5cweCiOM,8Q7XMM78+2C,http://www.desertsnow.co.jp/,https://www.instagram.com/desertsnow_shimokita/,広々とした店内でゆっくり見られる。
BIG TIME 下北沢店,東京都世田谷区北沢2-26-15,下北沢駅,ヴィンテージ,11:00-21:00,定休日なし,¥5000~,35.6626871,139.6664586,ChIJWbMbbmvzGGAR-Z4sSvVbfLE,8Q7XMM79+48,http://www.bigtime.jp/,https://www.instagram.com/big_time_shimokitazawa/,50s~90sのアメリカ・ヨーロッパ古着が豊富。
Little Trip to Heaven 下北沢店,東京都世田谷区北沢2-26-19,下北沢駅,レディース,11:00-21:00,定休日なし,¥6588~,35.6627689,139.666835,ChIJ-wWhemvzGGARTSdflDUM1DQ,8Q7XMM79+57,http://www.bigtime.jp/littletrip/,https://www.instagram.com/littletriptoheaven_official/,レトロでクラシカルなワンピースやブラウスが多い。
GRAPEFRUIT MOON 下北沢,東京都世田谷区北沢2-2-11,下北沢駅,60s・70s・80s,12:00-21:00,定休日なし,¥4588~,35.659816,139.6682685,ChIJO4HY_lzzGGARd4lrVGDWqs8,8Q7XMM59+X8,http://www.grapefruitmoon.jp/,https://www.instagram.com/grapefruitmoon_shimokitazawa/,質の良い柄シャツやレトロなアイテムが揃う。
Small Change 下北沢店,東京都世田谷区北沢2-27-1,下北沢駅,ヴィンテージ,11:00-21:00,定休日なし,¥5588~,35.6627116,139.6662289,,8Q7XMM79+54,http://www.smallchange.jp/,https://www.instagram.com/smallchange_official/,ブリティッシュ・ユーロヴィンテージに強い。
STICK OUT 下北沢店,東京都世田谷区北沢2-14-16,下北沢駅,USED・安価,11:00-20:00,定休日なし,¥800~,35.6598494,139.6676511,ChIJq1Uae2nzGGARwnP7kSX9lk0,8Q7XMM69+C5,http://www.stickout.co.jp/,https://www.instagram.com/stickout800/,全品800円前後という驚安価格の有名店。
TreFacStyle 下北沢1号店,東京都世田谷区北沢2-3-9,下北沢駅,ブランド古着,11:00-20:00,定休日なし,¥2588~,35.6602457,139.6684277,ChIJDePlg2nzGGARofCnYZae0MI,8Q7XMM59+V8,https://www.tf-style.com/,https://www.instagram.com/trefacstyle.official/,ドメスティックブランドから古着まで幅広く扱う。
TreFacStyle 下北沢2号店,東京都世田谷区北沢2-32-8,下北沢駅,ストリート,11:00-20:00,定休日なし,¥3588~,35.6627924,139.6688174,ChIJAb1eV2rzGGARCNz6fIBAp4A,8Q7XMM78+7V,https://www.tf-style.com/,https://www.instagram.com/trefacstyle.official/,こちらはストリート・アウトドアブランドが中心。
Micmo 下北沢1号店,東京都世田谷区北沢2-26-21,下北沢駅,レギュラー,12:00-20:00,定休日なし,¥4988~,35.6625951,139.6668439,ChIJWyuNUqXzGGAReilxBYYZF4w,8Q7XMM79+64,https://www.micmo.jp/,https://www.instagram.com/micmo_shimokitazawa/,下北沢に複数展開する、安くて可愛い古着屋。
Micmo 下北沢6号店,東京都世田谷区北沢2-25-8,下北沢駅,レギュラー,12:00-20:00,定休日なし,¥4988~,35.6594536,139.6673545,ChIJk5I5tgbzGGARo3hEobfD5Mc,8Q7XMM78+2X,https://www.micmo.jp/,https://www.instagram.com/micmo_shimokitazawa/,メンズライクなアイテムも豊富。
STEP AHEAD 下北沢店,東京都世田谷区北沢2-30-10,下北沢駅,アメカジ,12:00-20:00,定休日なし,¥6000~,35.6629021,139.6675535,ChIJ__-DBWvzGGARxrBGShwD_2E,8Q7XMM78+6X,,https://www.instagram.com/stepahead_shimokitazawa/,アメカジ好きにはたまらないラインナップ。
Zool,東京都世田谷区北沢2-25-12,下北沢駅,メンズ,12:00-20:00,定休日なし,¥4000~,35.662688,139.6670613,,8Q7XMM78+3R,,https://www.instagram.com/zool_vintage/,少しエッジの効いたアイテムが見つかる。
ROSE SHIMOKITAZAWA,東京都世田谷区北沢3-27-2,下北沢駅,大人古着,13:00-20:00,定休日なし,¥8000~,35.6640439,139.6679556,ChIJrdO_JmvzGGARSvVZHYLS4uE,8Q7XMM79+F6,,https://www.instagram.com/rose_shimokitazawa/,大人な女性に向けた洗練されたセレクト。
SIGNAL,東京都世田谷区北沢2-36-2,下北沢駅,セレクト,13:00-20:00,定休日なし,¥7000~,35.6632739,139.6674492,ChIJfTEZF2vzGGAR1pKUwC1Uzjg,8Q7XMM78+8G,,https://www.instagram.com/signal_shimokita/,状態の良いハイセンスな古着が並ぶ。
iot,東京都世田谷区北沢2-32-7,下北沢駅,リメイク,12:00-20:00,定休日なし,¥8988~,35.6604233,139.6681317,ChIJp5u1JHLzGGARfCwyk4o7djg,8Q7XMM78+8R,,https://www.instagram.com/iot_tokyo/,唯一無二のリメイクアイテムが人気。
VALON 下北沢店,東京都世田谷区北沢2-25-8,下北沢駅,ヴィンテージ,12:00-21:00,定休日なし,¥6588~,35.6622666,139.6671882,ChIJkVyhoGvzGGARJ6J0IEEOYcw,8Q7XMM78+2X,,https://www.instagram.com/valon_lanp/,東洋百貨店の中にある、質の高い古着屋。
Lanp,東京都世田谷区北沢2-25-8,下北沢駅,ヴィンテージ,12:35-21:35,定休日なし,¥5588~,35.6590926,139.6672718,ChIJkVyhoGvzGGARUSd_FOx1zno,8Q7XMM78+2X,,https://www.instagram.com/valon_lanp/,VALONの姉妹店。こちらも東洋百貨店内。
Ruby Tuesday,東京都世田谷区北沢2-25-8,下北沢駅,ヨーロッパ古着,12:00-20:00,定休日なし,¥5000~,35.6590203,139.6671767,ChIJ9xTba2nzGGARLzGJ1HHFu5Q,8Q7XMM78+2X,,https://www.instagram.com/ruby_tuesday_shimokitazawa/,東洋百貨店内。ヨーロッパ古着が中心。
SPiKe 下北沢店,東京都世田谷区北沢2-34-12,下北沢駅,アメカジ,12:00-20:00,定休日なし,¥5988~,35.6632115,139.6680344,ChIJmUDaAmvzGGARfBbtx8NCu0E,8Q7XMM78+9R,,https://www.instagram.com/spike_shimokita/,ラルフローレンなどの定番アメカジが豊富。
SOMA 下北沢店,東京都世田谷区北沢2-33-6 2F 飯島ビル202,下北沢駅,スニーカー,15:00-20:00,定休日なし,¥10000~,35.6631045,139.6689276,ChIJc_G5LGrzGGARe1b8rOCwR8c,8Q7XMM78+7Q,,https://www.instagram.com/soma_shimokitazawa/,世界中からマニアが訪れるヴィンテージスニーカー専門店。
hickory,東京都世田谷区代沢5-32-10,下北沢駅,アメカジ,13:00-20:00,定休日なし,¥5000~,35.65803,139.6675505,ChIJt-r_HGnzGGARaOW_yx-H8J8,8Q7XMM58+CP,,https://www.instagram.com/hickory_shimokitazawa/,状態の良いレギュラー古着が揃う。
HOOCHIE COOCHIE,東京都世田谷区北沢2-30-2,下北沢駅,ヨーロッパ,12:00-20:00,定休日なし,¥6000~,35.6628274,139.6674357,ChIJbQ-tCGvzGGARIDvKgzCdpM8,8Q7XMM78+4W,,https://www.instagram.com/hoochiecoochie_vintage/,ユーロワークやミリタリーに定評あり。
WED STORE,東京都世田谷区北沢2-35-15,下北沢駅,ストリート,14:00-20:00,定休日なし,¥5000~,35.6631799,139.6680904,ChIJVTGTAmvzGGARN4lh-KpeV-k,8Q7XMM78+8R,http://www.wed-store.com/,https://www.instagram.com/wed_store/,オリジナルアイテムも人気のショップ。
FILM,東京都世田谷区代沢5-30-12,下北沢駅,レディース,13:00-21:00,定休日なし,¥4000~,35.6577997,139.6680254,ChIJjYv0_WjzGGARohSHBqmx6Gw,8Q7XMM58+6C,,https://www.instagram.com/film_shimokitazawa/,ガーリーでレトロなアイテムが多い。
Chicago 下北沢店,東京都世田谷区北沢2-31-2,下北沢駅,アメカジ,11:00-20:00,定休日なし,¥3588~,35.6590071,139.6676807,ChIJQeShDWnzGGARA5rH2wwnK4s,8Q7XMM78+6R,,https://www.instagram.com/harajukuchicago_official/,原宿でおなじみのシカゴの下北沢店。
Husky 下北沢店,東京都世田谷区北沢2-26-21,下北沢駅,ヴィンテージ,12:00-20:00,定休日なし,¥6588~,35.6605668,139.6682702,ChIJyaBOy93zGGARTvmbhjCReAY,8Q7XMM79+64,,https://www.instagram.com/husky_shimokitazawa/,古着好きを唸らせる渋いセレクト。
Gleeful 下北沢店,東京都世田谷区北沢2-26-13,下北沢駅,アメカジ,12:00-20:00,定休日なし,¥5988~,35.6618456,139.6686544,ChIJOeUqjdrzGGARgRZ0qtzLWP0,8Q7XMM79+46,,https://www.instagram.com/gleeful_shimokitazawa/,併設のカフェあり。アメカジ中心のセレクト。
古着屋NOTIME 下北沢店,東京都世田谷区北沢2-19-17,下北沢駅,,0:00~24:00,24時間営業,¥1000~,35.660272,139.6672633,ChIJ3dW4JQDzGGARRqcRBSeCqv0,8Q7XMM68+2J,https://avend.co.jp/notime/,https://www.instagram.com/notime_shimokita,ヴィンテージのジャケットやシャツなど幅広い品ぞろえが人気。手ごろな価格で、おしゃれな雰囲気も人気。
3びきの子ねこ,東京都世田谷区北沢2-25-8,下北沢駅,レディース・Y2K・デザイナー,12:00-20:00,定休日なし,¥600~,35.662309,139.667148,ChIJkVyhoGvzGGARaN5BgdTOjWk,8Q7XMM68+WV,https://nekoharajyuku.stores.jp/,https://www.instagram.com/sanbikinokoneko/,手ごろな価格で掘り出し物が見つかる。
ALASKA 下北沢店,東京都世田谷区北沢2-34-7,下北沢駅,Tシャツ・ヴィンテージ,11:30-21:30,定休日なし,¥6000~,35.6631319,139.6674399,ChIJQzH_EGvzGGARePhj2HxZ6ig,8Q7XMM78+7X,http://alaska-tokyo.jp/,https://www.instagram.com/alaska_shimokitazawa/,質の高いヴィンテージアイテムが揃う。
CYAN-vintage&used-,東京都世田谷区北沢3-19-20 reload・2F 2,下北沢駅,レディース,12:00-20:00,定休日なし,¥4000~,35.663524,139.6701572,ChIJc_GQG9WNGGARLLJ_gc6tagg,8Q7XMM78+2X,,https://www.instagram.com/cyan_shimokitazawa/,東洋百貨店内。トレンド感のあるレディース古着。
ocean BLVD,東京都世田谷区北沢2-25-8,下北沢駅,レギュラー,12:00-20:00,定休日なし,¥2000~,35.6624012,139.6670095,ChIJkVyhoGvzGGARvUZaSxjpb2Q,8Q7XMM78+2X,,https://www.instagram.com/oceanblvd_shimokitazawa/,東洋百貨店内。掘り出し物が多い。
Blue Rose,東京都世田谷区北沢2-25-8,下北沢駅,リメイク,12:00-20:00,定休日なし,¥5000~,35.6623286,139.6672519,,8Q7XMM78+2X,,https://www.instagram.com/bluerose_shimokitazawa/,東洋百貨店内。個性的なリメイク古着。
古着屋 Re:Re 下北沢店:,東京都世田谷区北沢2-31-4 XA北口ビル2F,下北沢駅,ブランド古着,13:00-20:00,定休日なし,¥5000~,35.66265240000001,139.6677788,ChIJrQCrGifzGGARD_3mxxbAcCU,8Q7XMM77+38,,https://www.instagram.com/rere_shimokitazawa/,アーカイブ品などツウ好みの品揃え。
UTA,東京都世田谷区北沢2-9-2,下北沢駅,モード,13:00-20:00,定休日なし,¥4000~,35.6617733,139.6689377,ChIJF-A6TGrzGGARhbLzPa7vIT8,8Q7XMM69+26,,https://www.instagram.com/uta_shimokita/,独特の世界観があるセレクト。
MUD,東京都世田谷区北沢2-12-2,下北沢駅,ストリート,13:00-20:00,定休日なし,¥6000~,35.6628986,139.6688535,ChIJ48ULxmbzGGARpQIWBMxJfFY,8Q7XMM69+87,,https://www.instagram.com/mud_shimokita/,90sストリートなどのグッドレギュラー。
KINJI 下北沢店,東京都世田谷区北沢2-13-11,下北沢駅,大型店,11:00-20:00,定休日なし,¥2999~,35.660632,139.6680285,ChIJ4c2l1WvzGGARYSNOYhVDEKk,8Q7XMM69+64,https://www.kinji.jp/,https://www.instagram.com/kinji_shimokitazawa/,大阪発の大型古着店。物量がすごい。
Top of the Hill 下北沢店,東京都世田谷区北沢2-25-8,下北沢駅,ヴィンテージ,11:00-20:00,金土日は21:00まで,¥5988~,35.659816,139.6682685,ChIJO4HY_lzzGGARd4lrVGDWqs8,8Q7XMM59+X8,http://www.topofthehill.jp/,https://www.instagram.com/topofthehill_shimokitazawa/,東洋百貨店別館。クラシカルな雰囲気。
大東京ゲリラショップ,埼玉県川口市芝新町15-2,蕨駅,ヴィンテージ・アメカジ・革靴・ブーツ,13:00-18:00,土日・祝のみ営業,¥4000~,35.8299213,139.6959462,ChIJd3Kw4SCTGGAR9yYKUTekQ18,8Q7XRMHW+X9,,https://www.instagram.com/daitokyo_kawaguchi/,アメカジ、ヴィンテージ、レザーアイテムが充実した川口の名店。
LeeLoo Koenji / 古着屋,東京都杉並区高円寺南4-29-15 セトル高円寺 B1,高円寺駅,ゴシック・パンク系・個性派古着,11:00〜19:00 前後（Instagram上で日によって変更あり。最新は要確認）,インスタを確認,¥7000~,35.7037829,139.6508088,ChIJ97q-6nPzGGARqbZ2yVxfUkw,8Q7XPM32+G8,,https://www.instagram.com/leeloo_koenji/,デザイン系・世界観重視の専門店。値段設定はやや高め。
古着屋 MERRYLOU,東京都杉並区高円寺北2-6-4 井上ビル 1F,高円寺駅,ユーズド・レディース・セレクト,12:00~20:00,インスタを確認,¥3000~,35.7061491,139.6497929,ChIJ1UZLxljzGGARbTF9b6ygtsw,8Q7XPJ4X+FW,,https://www.instagram.com/merrylou_koenji/,高円寺のセレクト古着屋。レディース中心でトレンド感のある品揃え。
ibeestore,東京都杉並区高円寺北3-23-2 1F,高円寺駅,カジュアル・大型・レディース,12:00~20:00,定休日なし,リーズナブル～中価格帯,35.706334,139.6494935,ChIJN_KOkHTzGGARc755f0RnUBE,8Q7XPJ4X+GQ,,https://www.instagram.com/ibeestore/,高円寺の大型古着店。メンズ・レディースともに充実。
古着屋 SANGO,東京都杉並区高円寺2-6-4井上ビル3F,高円寺駅,90s・00s・ストリート・カジュアル,13:00〜21:00,定休日なし,中価格帯,35.7062271,139.6497597,ChIJ9cC7ug_zGGAR8n5ALtcgO5w,8Q7XPJ4X+FW,,https://www.instagram.com/0120furugi/,90年終わりから2000年頭の流行りを軸にデカくてカッケェスタイリング
PARA select & vintage 古着屋,東京都杉並区高円寺南3丁目46-9 102,高円寺駅,セレクト・ヴィンテージ・デザイナー・カジュアル,12:00~20:00,なし（土日は12:00~),中価格帯,35.703529,139.6486062,ChIJhwu5NODzGGARSTNjte6RqWU,8Q7XPJ3X+CC,,https://www.instagram.com/para._koenji/,高円寺のセレクト＆ヴィンテージ古着屋。ユニセックスでヴィンテージと現行の幅広いジャンルを扱う。
古着屋 Abyss（アビス）,東京都杉並区高円寺北3丁目41-8,高円寺駅,Y2K・grunge・レディース・個性派,12:00~20:00,木曜日,¥5000~,35.7103647,139.6469201,ChIJMTJ2aCzzGGARyc9KfRu-82E,8Q7XPJ6W+4Q,,https://www.instagram.com/abyss_tokyo?igsh=bXVhbTNienhoa2E5&utm_source=qr,高円寺の個性派古着屋。レディースのY2Kやグランジ系が充実。
古着屋ぼくらはえもいーず,東京都渋谷区神宮前1-7-8竹下荘2C,原宿駅,Y2K・レディース・個性派,11:00~20:00,不定休,¥3000~,35.6705523,139.7055971,ChIJZyB5VgCNGGARhRMP46Hg-2c,8Q7XMPC4+66,,https://www.instagram.com/bokuemo00/,"竹下通りエリアの小さな原宿系古着屋。カラフルで""エモい""テイストのレディース・ユニセックス古着屋が多い。"
YAMAHISA USED CLOTHING SHOP 原宿店,東京都渋谷区神宮前1-19-4,原宿駅,アメカジ・ストリート・メンズ中心,11:00~20:00,不定休,¥4000~,35.6714794,139.7040953,ChIJQ_KNgxKNGGARsR4S5vC-QgE,8Q7XMPC3+HJ,,https://www.instagram.com/,竹下通りの先にある高評価のアメカジ古着屋。ストリート寄りのアメリカ古着も充実しており、グーグルマップのレビュー件数も多い人気のお店。
KINJI 原宿店,東京都渋谷区神宮前4-31-10 YMスクエア原宿B1F,原宿駅,メンズ・レディース・古着全般・量り売り,11:00~20:00,なし（商業施設に準拠）,¥1000~,35.6690562,139.7060816,ChIJ451SgaSMGGAReYMxwFDwZoQ,8Q7XMP94+JC,,https://www.instagram.com/kinji_harajuku/,大型で見やすい店内とリーズナブルな価格帯が特徴。量り売りコーナーもあり、学生に人気の古着チェーン店。
カインドオル 原宿店,東京都渋谷区神宮前4丁目29-3 表参道ビル3F,原宿駅,ブランド古着・モード・ストリート,12:00~20:00,不定休,¥8000~,35.6682619,139.7065213,ChIJvUspY6OMGGARQ46OEXdIKJQ,8Q7XMP94+8J,,https://www.instagram.com/kindal_harajuku/,ハイブランドやドメスティックブランドの中古衣料を扱う買取販売店。状態の良いモード・ストリート系アイテムが揃う。
古着屋 森のくまさん,埼玉県さいたま市大宮区大門町3丁目200,大宮駅,学生・ヴィンテージ・スポーツ,13:00~19:00,不定休,¥2000~,35.9094857,139.6294894,ChIJQ8Gv20frGGAR3sVs7qz-MrQ,8Q7XWJ5H+QQ,,https://instagram.com/morinokuma3_r.a?igshid=MmIzYWVlNDQ5Yg==,大宮の学生に人気の古着屋。ヴィンテージやUSED商品が格安で買える。
セカンドストリート 川口店,埼玉県川口市栄町3丁目2 1号 KIKビル1F,川口駅,セカスト・アメカジ・supreme・ストリート・ヴィンテージ,10:00~21:00,なし,¥1000~,35.80306,139.718179,,,https://www.2ndstreet.jp/shop/details?shopsId=32091,,川口駅に2025年10月にオープンしたセカスト。supremeなどのハイブランド商品やvintage商品も多数扱い。普通のセカストよりは少し高め。駐車場はなし。,,なし
トレファクスタイル 十条店,東京都北区上十条3丁目3-11,十条駅,セレクトショップ,10:00~20:00,なし,¥1000~,35.760658,139.718677,,8Q7XQP69+7F,https://www.tf-style.com/shop/407/"https://www.tf-style.com/",,幅広いジャンルのアイテムを取り扱った豊富なラインナップ。トレンドから、定番アイテムなど多数そろう。
古着屋JAM 原宿店,東京都渋谷区神宮前6-28-5,原宿駅,"アメカジ,ヴィンテージ",11:00-20:00,定休日なし,¥3000~¥15000,35.6645,139.7045,,,https://jamtrading.jp/,https://instagram.com/furugiya_jam_official,国内最大級の古着屋JAMの原宿店。初心者からマニアまで楽しめる圧倒的な品揃えが魅力です。,
Chicago 表参道店,東京都渋谷区神宮前4-26-26,表参道駅,"着物,アメカジ,ヨーロッパ",11:00-20:00,定休日なし,¥3000~¥15000,35.6685,139.7065,,,https://www.chicago.co.jp/,,原宿・表参道エリアの老舗。着物の取り扱いも豊富で、海外からの観光客にも人気のお店です。,
USED SNEAKERS KAI,埼玉県川口市芝中田1-1-14,蕨駅,"スニーカー,ストリート",13:00-20:00,定休日なし,¥3000~,35.8315,139.6963,,,https://used-sneakers.com/,https://www.instagram.com/usedsneakers_kai/,蕨駅東口から徒歩9分。リーズナブルな価格帯で珍しいヴィンテージスニーカーが揃う中古スニーカー専門店。,
古着83 十条店,東京都北区十条仲原1-2-5 赤のれんビル2F,十条駅,"ヴィンテージ,レギュラー",12:00-20:00,定休日なし,¥1000~,35.7634,139.7212,,,https://furugi83.thebase.in/,https://www.instagram.com/furu.gi83/,十条商店街にあるアットホームな古着屋。良心的な価格設定と気さくな店主が魅力です。,
セカンドストリート 原宿店,東京都渋谷区神宮前4-26-4,原宿駅,"ヴィンテージ,ストリート",11:00-21:00,なし,¥5000~,35.6692271,139.7081291,,,,,メンズ強化店。,クレジットカード・スマホバーコード決済・現金
セカンドストリート 高円寺店,東京都杉並区高円寺南4-6-7,高円寺駅,"ヴィンテージ,アメカジ",11:00-21:00,なし,¥3000~,35.703028,139.6490492,,,,,古着の街の旗艦店。,クレジットカード・スマホバーコード決済・現金
スーパーセカンドストリート 大宮日進店,埼玉県さいたま市北区日進町3-372,日進駅,"超大型,楽器,古着",10:00-22:00,なし,¥1000~,35.9367519,139.5987896,,,,,日本最大級の在庫。,クレジットカード・スマホバーコード決済・現金,あり
セカンドストリート アメリカ村店,大阪府大阪市中央区西心斎橋2-18-5,心斎橋駅,"ストリート,スニーカー",11:00-21:00,なし,¥5000~,34.6722428,135.4974877,,,,,関西のストリートカルチャーの拠点。,クレジットカード・スマホバーコード決済・現金
セカンドストリート 札幌狸小路4丁目店,北海道札幌市中央区南2条西4-9-2,大通駅,"ブランド,ヴィンテージ",10:00-22:00,なし,¥5000~,43.0572281,141.3516235,,,,,北海道最大の品揃え。,クレジットカード・スマホバーコード決済・現金
セカンドストリート 仙台中央店,宮城県仙台市青葉区中央2-4-10,仙台駅,"セレクト,ブランド古着",10:00-21:00,なし,¥5000~,38.26211,140.8713,,,,,東北エリアのトレンド発信拠点。,クレジットカード・スマホバーコード決済・現金
セカンドストリート 宇都宮簗瀬店,栃木県宇都宮市簗瀬町2512-1,宇都宮駅,"トータル,古着全般",10:00-21:00,なし,¥1000~,36.5441314,139.8942151,,,,,北関東の広大な店舗。,クレジットカード・スマホバーコード決済・現金,あり
スーパーセカンドストリート 柏沼南店,千葉県柏市風早1-8-1,柏駅,"超大型,アウトドア",10:00-21:00,なし,¥1000~,35.8397974,140.0045411,,,,,東日本最大級。,クレジットカード・スマホバーコード決済・現金,あり
スーパーセカンドストリート 名古屋みなと店,愛知県名古屋市港区砂美町1-5,名古屋競馬場前駅,"超大型,家具",10:00-21:00,なし,¥1000~,35.1065099,136.8717918,,,,,東海地方最大の店舗。,クレジットカード・スマホバーコード決済・現金,あり
セカンドストリート 堀江店,大阪府大阪市西区南堀江1-9-1,四ツ橋駅,"デザイナーズ,モード",11:00-21:00,なし,¥10000~,34.67113,135.496079,,,,,アーカイブ作品が揃う。,クレジットカード・スマホバーコード決済・現金
セカンドストリート 神戸三宮店,兵庫県神戸市中央区加納町4-3-5,三宮駅,"インポート,ハイブランド",11:00-21:00,なし,¥10000~,34.6945885,135.1931349,,,,,欧州インポートブランドが強い。,クレジットカード・スマホバーコード決済・現金
セカンドストリート 福岡天神2号店,福岡県福岡市中央区大名2-1-4,天神駅,"ヴィンテージ,メンズ",11:00-21:00,なし,¥10000~,33.5887023,130.3960067,,,,,マニア垂涎のヴィンテージ特化店。,クレジットカード・スマホバーコード決済・現金
セカンドストリート 那覇小禄店,沖縄県那覇市赤嶺2-1-7,赤嶺駅,"夏服,アウトドア",10:00-21:00,なし,¥1000~,26.1979829,127.6684142,,,,,沖縄ならではの品揃え。,クレジットカード・スマホバーコード決済・現金
無人古着屋NOTIME 山形店,山形県山形市美畑町12-27 南栄ビル1階,山形駅,"アメカジ,ベーシック",24時間営業,なし,不明,38.2351,140.3262,,,,https://www.instagram.com/notime_yamagata/,山形市初の24時間365日営業無人古着屋。LINE解錠式で入店しセルフレジで決済。ベーシックなアメカジを中心に手頃な価格で展開。,電子マネー・スマホバーコード決済,あり（9台）
SQUAT（スクワット）,山形県山形市十日町4-3-14,山形駅,"ヨーロッパヴィンテージ,ミリタリー,ワークウェア",11:00-20:00,不定休,不明,38.2523,140.3572,,,https://squat.shop-pro.jp/,https://www.instagram.com/squat_used_clothing/,1900年代〜1980年代のヨーロッパ直輸入ヴィンテージ専門店。ワークウェア・ミリタリー・欧州アヴァンギャルドを中心に展開する山形の老舗。,現金,
MUNDO NOVO（ムンドノーボ）,山形県山形市南三番町11-26,山形駅,"レディース,ヨーロッパヴィンテージ",13:00-19:00,不定休,不明,38.2472,140.3598,,,,https://www.instagram.com/mundonovo___/,SQUATオーナーが営むレディース向けヨーロッパ古着セレクトショップ。手頃な価格でヨーロッパの古着・小物を厳選。全国でも珍しい欧州レディース専門店。,現金,あり（3台）
antique store LIFE（ライフ）,山形県山形市緑町3-16-5,山形駅,"アメリカンヴィンテージ,ネイティブジュエリー",12:00-19:00,不定休,不明,38.2538,140.3424,,,,https://www.instagram.com/lifeyamagata/,アメリカで買い付けたヴィンテージ古着とネイティブアメリカンジュエリーを専門に扱うセレクトショップ。アンティーク雑貨も豊富。,現金,
Sunny Collection（サニーコレクション）,山形県山形市西田2-4-13,山形駅,"アメカジ,ミリタリー,アウトドア",10:30-19:00,月曜・火曜・水曜,不明,38.2383,140.3142,,,https://sunnycollection.jp/,https://www.instagram.com/sunnycollection/,山形市西バイパス沿いのアメカジ専門古着屋。カフェ併設で80〜90年代を中心とした厳選ヴィンテージをゆったりと選べる。,現金,あり
hawdacot（ハウダコット）山形,山形県山形市本町1-4-23 細谷ビル1F,山形駅,"ヴィンテージ,US古着,レディース",12:00-20:00,不定休,不明,38.2499,140.3548,,,,https://www.instagram.com/hawdacot_yamagata/,90年代以降の良質なヴィンテージを幅広く展開。埼玉発の古着ブランドが山形に出店。全年代・男女問わず楽しめる。,現金,
Drops（ドロップス）,山形県山形市七日町2-4-1 1F,山形駅,"レディース,アメリカ古着",12:00-19:00,火曜・水曜,不明,38.2494,140.3542,,,,,レンガビルが目印の七日町のレディース専門古着屋。アメリカ・カナダの古着とアクセサリーを取り扱う。,現金,
JAMMING（ジャミング）,山形県山形市本町1-7-20,山形駅,"ヴィンテージ,US古着,アクセサリー",11:30-19:00,不定休,不明,38.2497,140.3551,,,http://www.jamming-ymgt.com/,,ヴィンテージから新品まで扱う山形の古着屋。Ralph Lauren・J CREW・Levi'sなどUSブランドや家具・アクセサリーも取り扱う。,現金,
one day store yamagata,山形県山形市七日町3-2-27,山形駅,"US古着,80年代,90年代",12:00-20:00,水曜,不明,38.2489,140.3535,,,https://onedaystore.official.ec/,https://www.instagram.com/one_day_store_yamagata/,新潟発の人気古着ショップの山形店。アメリカ直買い付けの80〜90年代ヴィンテージが中心。北米未発売のブランドアイテムも揃う。,現金,
ドンドンダウンオンウェンズデイ 山形バイパス店,山形県山形市上山家町字下宿760-1,山形駅,"ヴィンテージ,ストリート,ハイブランド",11:00-20:00,月曜,¥5000~,38.2558,140.3821,,,,,山形バイパス沿いの大型古着店。ヴィンテージ・ストリート系からハイブランドまで幅広く取り扱う。価格は水曜日に全品値下げ。,現金・クレジット,あり
セカンドストリート 山形南館店,山形県山形市南館5丁目4-23,山形駅,"ブランド,古着全般",10:00-21:00,なし,¥1000~,38.2148,140.3548,,,,,山形市南部の大型セカンドストリート。駐車場133台完備。メンズ・レディース・キッズの古着・ブランド品を幅広く取り扱う。,クレジットカード・スマホバーコード決済・現金,あり（133台）
お宝中古市場 山形南店,山形県山形市南館4-1-1,山形駅,"格安古着,リサイクル全般",9:00-深夜2:00,なし,¥500~,38.2155,140.3536,,,,,深夜まで営業する大型リサイクルショップ。格安古着から家電・家具まで幅広く取り扱う。,現金・クレジット,あり
セカンドストリート 天童店,山形県天童市桜町11-30,天童駅,"ブランド,古着全般",10:00-21:00,なし,¥1000~,38.3564,140.3832,,,,,天童市の大型セカンドストリート。駐車場62台完備。古着・ブランド品・家電・家具を幅広く扱うリユースショップ。,クレジットカード・スマホバーコード決済・現金,あり（62台）
古着倉庫 イオンモール天童店,山形県天童市芳賀タウン北4丁目1-1 イオンモール天童2F,天童駅,"USA古着,レギュラー古着,雑貨",10:00-21:00,なし,¥1000~,38.3516,140.3728,,,,https://www.instagram.com/furugisouko_aeon_tendo_2023/,イオンモール天童2Fに入る大型古着店。常時30000アイテム以上の品揃えでUSA古着を中心に新品・雑貨も取り扱う。,現金・クレジット,あり（商業施設共用）
古着倉庫 米沢店,山形県米沢市中田町514-1,米沢駅,"USA古着,レギュラー古着",平日12:00-19:30 / 土日祝11:00-19:00,不定休,¥1000~,37.9272,140.1232,,,https://souko2017.thebase.in/,https://www.instagram.com/furugisouko2017/,置賜エリア最大級の古着屋。USA古着を中心にレギュラー古着も豊富に揃える。Instagramフォロワー1万超えの人気店。,現金,あり
Janky's（ジャンキーズ）,山形県酒田市御成町12-10,酒田駅,"US古着,ヴィンテージ,ヨーロッパ古着",12:00-20:00,火曜,不明,38.9164,139.8493,,,,,酒田駅から徒歩8分の穴場古着店。アメリカ・ヨーロッパの古着を直輸入。ヴィンテージからレギュラーまで豊富な品揃え。,現金,なし
オフハウス 酒田店,山形県酒田市ゆたか2-1-10,酒田駅,"古着全般,ブランド",10:00-19:00,なし,¥1000~,38.9188,139.8437,,,,,ハードオフグループの衣類専門リユースショップ。ノンブランドからハイブランド・ヴィンテージまで幅広い衣料品を取り扱う。,現金・クレジット,あり
CAPTAIN MOTHER SHIP!,福島県郡山市虎丸町9-18,郡山駅,"ヴィンテージ,US古着,UK古着",11:00-20:00（水曜19:00まで）,木曜,不明,37.3930,140.3740,,,,,1920年代〜1980年代のUS・UK古着を月3〜4回買い付ける郡山の老舗。桜通り直進5分。,,
DESERT SNOW 郡山店,福島県郡山市中町11-4 ツタヤビル2F,郡山駅,アメリカ古着,11:00-20:00,定休日なし,不明,37.3971,140.3833,,,https://www.rakuten.co.jp/desertsnow-koriyama/,https://www.instagram.com/desertsnow_koriyama/,町田発祥のデザートスノー郡山店。密度の高い店内にアメリカ古着が豊富に揃う。駅から徒歩5分。,,
Clover Over Dover,福島県郡山市中町7-8 文化マート,郡山駅,"ヨーロッパ古着,ヴィンテージ,UK古着",12:00-19:00,不定休,不明,37.3965,140.3811,,,,https://www.instagram.com/clover_over_dover_0309/,日本屈指のUKカルチャーヴィンテージストア。郡山の音楽文化を体現した欧州インポート専門店。,,
ALL MY LOVING,福島県郡山市中町11-5 スクエア郡山2F,郡山駅,"アメリカ古着,ヴィンテージ",不明,不定休,不明,37.3971,140.3834,,,,,50〜80年代のヴィンテージを中心に取り扱う郡山のアメカジ古着屋。,,
s.l.u.t koriyama 本店,福島県郡山市清水台1-6-19 八幡第一ビル1F,郡山駅,"アメリカ古着,スニーカー,アクセサリー",11:00-20:00,不定休,不明,37.3940,140.3624,,,https://slut-koriyama.com/,https://www.instagram.com/s.l.u.t_koriyama_vintage/,郡山駅から徒歩10分。アメリカ古着をメインにスニーカー・アクセサリーも扱う清水台の人気店。,,
s.l.u.t koriyama 2号店,福島県郡山市清水台2-13-24 今川ビル1F,郡山駅,"アメリカ古着,レギュラー古着,スニーカー",11:00-20:00,不定休,不明,37.3944,140.3632,,,https://slut-koriyama.com/,https://www.instagram.com/s.l.u.t_koriyama_vintage/,s.l.u.t koriyama の2号店。清水台エリアにあるアメリカ古着・スニーカーの系列店。,,
LITHIUM,福島県郡山市清水台1-6-19 八幡第一ビル2F,郡山駅,"UKヴィンテージ,ヨーロッパ古着,ミリタリー",11:00-21:00,不定休,不明,37.3940,140.3624,,,https://lithium2017.thebase.in/,,郡山のUKカルチャー古着屋。革ジャンのオーダー製作も可能。Clover Over Doverと姉妹店。,,
AND1931,福島県郡山市清水台1-6-12 1F,郡山駅,"ヴィンテージ,レディース,リメイク",12:00-18:00,不定休,不明,37.3940,140.3621,,,,https://www.instagram.com/and1931_vintage/,ヴィンテージとリメイク古着を扱う郡山のセレクトショップ。持ち込みカスタムも受付可能。,現金,
BEGGAR,福島県郡山市清水台1-6-17 八幡第一ビル1F・2F,郡山駅,"アニメ古着,映画Tシャツ,古着",12:00-18:00,火曜,不明,37.3941,140.3623,,,https://beggar.base.shop/,https://www.instagram.com/beggar_official_/,2024年7月オープン。アニメ・映画のTシャツを中心に約500点の古着を揃える清水台の新店。,,
sai,福島県郡山市清水台2-7-24,郡山駅,"ヴィンテージ,デザイナーズ,90年代",12:00-20:00,不定休,不明,37.3948,140.3638,,,https://saisaiused.thebase.in/,,デザイナーズ・ヴィンテージ・90年代古着を丁寧にセレクトする郡山の古着セレクトショップ。,現金,
Pickle Used & Vintage,福島県郡山市神明町1-21,郡山駅,"ヴィンテージ,アメカジ",12:00-19:00,水曜・木曜,不明,37.4019,140.3842,,,https://pickleused.com/,https://www.instagram.com/pickle_used/,水木定休のヴィンテージ専門店。近隣コインパーキング利用。,現金,なし
USED CLOTHING HOUSE A,福島県郡山市駅前1-4-6 LAB146 1F,郡山駅,"アメカジ,ヴィンテージ,ストリート",11:30-19:30,不定休,不明,37.3983,140.3840,,,https://ausedhouse.base.shop/,https://www.instagram.com/a_used.clothing.house/,郡山駅から徒歩3分。Carhartt・Levi's・Patagonia等50〜2000年代のヴィンテージが揃う。,,
clé,福島県郡山市駅前1-6-11,郡山駅,"レディース,ヴィンテージ,セレクト",不明,不定休,不明,37.3976,140.3843,,,,https://cle-closet.jp/,郡山駅前のレディース中心のヴィンテージセレクトショップ。Instagramで限定販売あり。,,
無人古着屋SELFURUGI 郡山店,福島県郡山市駅前2-11-1 MOLTI 3F,郡山駅,"無人,アメカジ,ベーシック",24時間営業,なし,不明,37.3990,140.3813,,,https://avend.co.jp/selfurugi/,https://www.instagram.com/selfurugi/,郡山駅西口のMOLTI3Fにある24時間営業の無人古着屋。LINEで入退店しセルフレジで決済。,電子マネー・スマホバーコード決済,
セカンドストリート 郡山店,福島県郡山市朝日3-7-30,郡山駅,"古着全般,ブランド",10:00-21:00,なし,¥1000~,37.3942,140.3694,,,https://www.2ndstreet.jp/shop/details?shopsId=02464,,郡山市朝日のセカンドストリート。古着・ブランド品・家電・家具を幅広く扱うリユースショップ。,クレジットカード・スマホバーコード決済・現金,あり
セカンドストリート 郡山南店,福島県郡山市南2-38,郡山駅,"古着全般,ブランド",10:00-21:00,なし,¥1000~,37.3899,140.3793,,,https://www.2ndstreet.jp/shop/details?shopsId=30961,,郡山市南部のセカンドストリート。メンズ・レディース・キッズの古着・ブランド品を取り扱う。,クレジットカード・スマホバーコード決済・現金,あり
セカンドストリート 郡山あさか店,福島県郡山市久留米5-201-3 オリエントパーク内,郡山駅,"古着全般,ブランド",10:00-21:00,なし,¥1000~,37.4063,140.4068,,,https://www.2ndstreet.jp/shop/details?shopsId=30308,,郡山市北東・久留米のオリエントパーク内にあるセカンドストリート。,クレジットカード・スマホバーコード決済・現金,あり
セカンドストリート イオンタウン郡山店,福島県郡山市松木町2-88 イオンタウン郡山内,郡山駅,"古着全般,ブランド",10:00-21:00,なし,¥1000~,37.3781,140.3713,,,https://www.2ndstreet.jp/shop/details?shopsId=31843,,イオンタウン郡山内のセカンドストリート。郡山市南部に位置する大型リユースショップ。,クレジットカード・スマホバーコード決済・現金,あり（商業施設共用）
トレジャーファクトリー 郡山うねめ通り店,福島県郡山市咲田1-27-7,郡山駅,"古着全般,ブランド,リユース全般",10:00-20:00,なし,¥1000~,37.3897,140.3577,,,https://www.trefac.jp/store/tcpsb/?shop=17,,総合リサイクルショップ。古着・ブランド品・家電・ホビーなど幅広く取り扱う。駐車場30台完備。,クレジットカード・スマホバーコード決済・現金,あり（30台）
LEMO,福島県福島市置賜町5-22 置賜町ビル1F,福島駅,アメリカ古着,13:00-20:00,火曜・水曜,不明,37.7572,140.4713,,,,https://www.instagram.com/lemo_fukushima/,2025年3月オープン。店主がセレクトしたアメリカ古着を取り揃える白を基調とした落ち着いた雰囲気の古着屋。,,なし
古着屋5582,福島県福島市五月町2-4,福島駅,"アメカジ,ヴィンテージ",不明,不定休,不明,37.7598,140.4732,,,,https://www.instagram.com/5582shop/,50年代〜90年代のアメカジファッションが揃う福島市の古着屋。一番丁商店街通り沿い。赤い郵便ポストが目印。,,
SPANKY&LORO,福島県福島市置賜町8-35,福島駅,アメリカ古着,平日12:00-20:00 土11:00-20:00 日11:00-19:00,火曜,不明,37.7571,140.4720,,,,https://www.instagram.com/spankyloro/,福島市パセオ通りのアメリカンインポート古着屋。メンズ・レディース両方充実。,,
kawl.,福島県福島市森合字丹波谷地9-4,福島駅,"ヨーロッパ古着,ヴィンテージ,デザイナーズ",12:00-20:00（日曜12:00-19:00）,水曜,不明,37.7265,140.4755,,,https://kawl-selectusedclothing.shopinfo.jp/,,福島市森合のセレクトユーズドショップ。デザイナーズ・ヴィンテージ・90年代古着を丁寧に販売。,,
TRUNK23,福島県福島市永井川字沢田10-9,福島駅,"アメリカ古着,スニーカー",12:00-18:00,不定休,不明,37.7097,140.4557,,,https://trunk23.theshop.jp/,,福島市永井川のアメリカ買い付け古着屋。スニーカー・古着を中心に取り扱う。,現金,あり
Will Rebirth 福島店,福島県福島市大町9-12,福島駅,"海外ヴィンテージ,一点物,レコード",平日12:00-19:00 土11:00-20:00 日11:00-19:00,なし,不明,37.7640,140.4827,,,https://willrebirth.com/,,2025年2月オープン。海外ヴィンテージ・一点物古着・レコード・作家作品を扱うセレクトショップ。コインリング製作体験も。,,
古着屋ミラッセCoCo,福島県福島市春日町13-22,福島駅,"アメカジ,ヴィンテージ",不明,不定休,不明,37.7594,140.4843,,,,https://www.instagram.com/mirasse_coco/,福島市春日町の古着セレクトショップ。,,
セカンドストリート 福島南店,福島県福島市鳥谷野字扇田37-1,福島駅,"古着全般,ブランド",10:00-21:00,なし,¥1000~,37.7384,140.4795,,,https://www.2ndstreet.jp/shop/details?shopsId=30953,,福島市南部の大型セカンドストリート。メンズ・レディース・キッズの古着・ブランド品を幅広く取り扱う。,クレジットカード・スマホバーコード決済・現金,あり
セカンドストリート 福島西店,福島県福島市南沢又字下琵琶渕59,福島駅,"古着全般,ブランド",10:00-21:00,なし,¥1000~,37.7554,140.4465,,,https://www.2ndstreet.jp/shop/details?shopsId=31318,,福島市西部のセカンドストリート。古着・ブランド品・家電・家具を幅広く取り扱う。,クレジットカード・スマホバーコード決済・現金,あり
セカンドストリート 福島松山店,福島県福島市松山町78-3,福島駅,"古着全般,ブランド",10:00-21:00,なし,¥1000~,37.7544,140.5056,,,https://www.2ndstreet.jp/shop/details?shopsId=30757,,福島市東部・松山町のアパレル特化型セカンドストリート。駐車場90台完備。,クレジットカード・スマホバーコード決済・現金,あり（90台）
スーパーセカンドストリート いわき平店,福島県いわき市平上荒川字長尾28,いわき駅,"超大型,古着全般,アウトドア",10:00-21:00,なし,¥1000~,37.0635,140.9043,,,https://www.2ndstreet.jp/shop/details?shopsId=31248,,福島県最大規模のスーパーセカスト。広い店内でいわき市最大級の品揃えを誇る。,クレジットカード・スマホバーコード決済・現金,あり
セカンドストリート いわき小名浜店,福島県いわき市小名浜岡小名岸53-3,いわき駅,"古着全般,ブランド",10:00-20:00,なし,¥1000~,37.0002,140.9219,,,https://www.2ndstreet.jp/shop/details?shopsId=31194,,いわき市小名浜のセカンドストリート。古着・ブランド品を幅広く取り扱うリユースショップ。,クレジットカード・スマホバーコード決済・現金,あり
no.vel,福島県いわき市平谷川瀬3-6-1 久善ビル12号,いわき駅,"90年代,00年代,レギュラー古着",SNS告知,不定休,不明,37.0532,140.8892,,,https://noveliwaki.com/,,色別ラックが特徴のユニセックス古着店。7000〜15000円帯の厳選古着。メンバーシップ制度あり。,,
path. iwaki,福島県いわき市平谷川瀬3-19-17 永山スペースビル1F 102号,いわき駅,"セレクト,ユーズド",平日12:00-20:00 土日祝11:00-20:00,水曜,不明,37.0536,140.8903,,,,https://www.instagram.com/path.iwaki/,センス系セレクトユーズドショップ。通販対応。いわき平谷川瀬エリアに位置する。,,
MATRA,福島県いわき市平上荒川砂屋戸29-1,いわき駅,"古着,ミリタリー,アメカジ",12:00-19:00,木曜,不明,37.0631,140.9047,,,https://alaya-matra.com/,,ALAYAの姉妹店。古着とミリタリー雑貨を扱う平屋カフェスタイルのセレクト古着店。,,
ALAYA,福島県いわき市小名浜上明神町4-2,いわき駅,"海外買付古着,雑貨",11:00-22:00,木曜,不明,36.9980,140.9118,,,https://alaya-matra.com/,,1Fに古着・雑貨。2Fにカフェが入る小名浜の人気複合店。港町散策のついでに立ち寄れる。,,
辿う,福島県いわき市小名浜蛭川南132-1,いわき駅,"90年代,00年代古着",11:00-19:00,不定休,不明,36.9877,140.9281,,,,https://www.instagram.com/tadoo_iwaki/,「渋くて・やさしい」をテーマに90〜00年代の古着を丁寧にセレクト。軽食も提供。,,
古着屋NANA いわき店,福島県いわき市小名浜字隼人1-1 隼人ビル2F東,いわき駅,"Y2K,リメイク,小物",不定（変動あり）,不定休,不明,36.9977,140.9130,,,,https://www.instagram.com/furugiya_nana/,2025年11月オープン。Y2Kスタイル中心のリメイクパンツ・スウェット・ネクタイ等を扱う。学割10%オフ。,,
Riff used clothing,福島県いわき市小名浜下神白三崎12-3,いわき駅,アメカジ,土曜・祝日12:00-16:00,月〜金,不明,36.9779,140.9454,,,,https://www.instagram.com/riff_usedclothing/,週末と祝日のみ営業の隠れ家的古着屋。アメカジ中心の厳選セレクト。,,
#furugi#furugi#furugi,福島県いわき市小名浜君ケ塚町13-6,いわき駅,"レギュラー古着,激安",平日10:00-16:00 土日祝13:00-19:00頃,不定休,¥3000~,36.9962,140.9065,,,,https://www.instagram.com/furugi_furugi_furugi_/,3000〜5000円中心の格安レギュラー古着店。いわき小名浜エリアの激安古着屋。,,
無人古着屋NOTIME いわき店,福島県いわき市鹿島町久保飯栗田2-1 2階,いわき駅,"無人,アメカジ,ベーシック",24時間営業,なし,不明,37.0045,140.9172,,,https://avend.co.jp/shop/iwaki/,,24時間365日営業の無人古着屋。LINE入退店・セルフレジ対応のいわき市の無人店舗。,電子マネー・スマホバーコード決済,
VACFF,福島県会津若松市大町1-1-22,七日町駅,"古着,古道具,クラフト",11:00-19:00,不定休,不明,37.4869,139.9407,,,https://vacff.theshop.jp/,https://www.instagram.com/vacff.shop/,七日町通り近くの古着・古道具・クラフト品・ドライフラワーのセレクトショップ。大正ロマンの建物が立ち並ぶエリア。,,
古着倉庫 会津若松店,福島県会津若松市飯寺北3-8-62 RE:CYCLE GARAGE内,会津若松駅,"USA古着,レギュラー古着",10:00-20:00,なし,¥1000~,37.5022,139.9358,,,,https://www.instagram.com/furugisouko_aizuwakamatsu2024/,RE:CYCLE GARAGE内の大型古着倉庫店。USA古着を中心に豊富に揃える。,現金・クレジット,あり
セカンドストリート 会津若松インター店,福島県会津若松市亀賀1-13-9,会津若松駅,"古着全般,ブランド",10:00-21:00,なし,¥1000~,37.4974,139.9145,,,https://www.2ndstreet.jp/shop/details?shopsId=30814,,会津若松インター近くのセカンドストリート。古着・ブランド品・家電・家具を幅広く取り扱う。,クレジットカード・スマホバーコード決済・現金,あり
セカンドストリート 会津城南店,福島県会津若松市門田町大字黒岩字大坪17,会津若松駅,"古着全般,ブランド",10:00-20:00,なし,¥1000~,37.4597,139.9249,,,https://www.2ndstreet.jp/shop/details?shopsId=31508,,会津若松市南部のセカンドストリート。古着・ブランド品・家電・家具を幅広く取り扱う。,クレジットカード・スマホバーコード決済・現金,あり
セカンドストリート イオンタウン須賀川店,福島県須賀川市仲の町102 イオンタウン須賀川E棟,須賀川駅,"古着全般,ブランド",10:00-20:00,なし,¥1000~,37.2964,140.3733,,,https://www.2ndstreet.jp/shop/search?prefectural=07,,イオンタウン須賀川E棟内のセカンドストリート。古着・ブランド品を幅広く取り扱うリユースショップ。,クレジットカード・スマホバーコード決済・現金,あり（商業施設共用）
a.j.m.ATOMIC BOMB21,福島県白河市会津町93-20,白河駅,"ヴィンテージ,US古着,アメカジ",不明,不定休,不明,37.1323,140.2058,,,,https://www.instagram.com/ajm_atomicbomb21/,白河駅から徒歩圏のヴィンテージ古着屋。アメリカ・ヨーロッパの古着を取り扱う。,,
古着屋JAM 仙台店,宮城県仙台市青葉区中央3丁目6-10 フージャース仙台駅前ビル1F,仙台駅,"アメカジ,インポート古着,ヴィンテージ",11:00-20:00,不定休,¥2000~,38.2615,140.8772,,,https://jamtrading.jp/,https://www.instagram.com/furugiya_jam_official/,全国展開の海外古着専門チェーン。仙台駅から徒歩1分。ノースフェイスやパタゴニアのヴィンテージが1万円以下で揃う。自社クリーニング済みで品質が高い。,"現金・クレジット・電子マネー",
Hi-smile（ハイスマイル）,宮城県仙台市青葉区中央2丁目5-9 庄文堂ビル1F,仙台駅,"アメカジ,デッドストック,US古着",12:00-19:00,不定休,不明,38.2632,140.8718,,,https://www.hi-smile.com/,https://www.instagram.com/hi_smile_sendai/,アメリカ買い付けの一点物やデッドストック品が豊富。日本未販売のレアアイテムが多く「質の良い古着」を求める上級者向けの一店。,現金,
SHACK-A-LUCK（シャカラック）,宮城県仙台市青葉区中央2丁目10-3 第二MTビル2F,仙台駅,"アメリカ古着,ストリート,レギュラー古着",11:00-20:00,不定休,¥2000~,38.2628,140.8692,,,https://shack.idcom.co.jp/,https://www.instagram.com/shackaluck/,古着初心者にも入りやすい手頃な価格のアメリカ古着屋。ネルシャツ・パーカー・スウェットなど定番アイテムが充実。90〜00年代レギュラー中心。,現金,
DUROC（デュロック）,宮城県仙台市青葉区中央2丁目10-3 第二MTビル地下1F,仙台駅,"アメリカ古着,レディース,ユニセックス",11:00-20:00,不定休,¥2000~,38.2628,140.8692,,,,,SHACKALUCKの系列店。メンズ・レディース・ユニセックスのレギュラー古着を中心に展開。同ビル地下に位置するディープな一角。,現金,
XXNT（メメント）,宮城県仙台市青葉区中央2丁目1-15 仙台マンション209,仙台駅,"トラッド,モード,アーカイブ古着","平日14:00-20:00 / 休日12:00-20:00",不定休,不明,38.2641,140.8769,,,https://xxnt.official.ec/,https://www.instagram.com/xxnt.sendai/,トラッドやモードを再解釈した古着セレクト。ストーンアイランドやステューシーのアーカイブを扱う仙台屈指のモード系古着屋。東京三軒茶屋にも系列店あり。,現金,
bad ame（アム）,宮城県仙台市青葉区中央2丁目1-15 仙台マンション208,仙台駅,"ゴシック,グランジ,パンク古着","平日14:00-19:00 / 休日12:00-19:00",不定休,不明,38.2641,140.8769,,,,https://www.instagram.com/bad_ame_/,XXNTメメントの系列店。グランジ・フェアリーグランジ・パンクなど独自スタイルの古着専門。2024年10月に原宿店もオープン。,現金,
the loom 仙台,宮城県仙台市青葉区中央2丁目1-15 仙台マンション103,仙台駅,"レギュラー古着,アメリカ古着",11:00-20:00,不定休,¥1000~,38.2641,140.8769,,,,https://www.instagram.com/the.loom_sendai/,手頃な価格帯のレギュラー古着を中心に扱う仙台マンション内の古着屋。気軽に入れる雰囲気が特徴。,現金,
VINTAGE SELECT CLOTHING CLIMB,宮城県仙台市青葉区中央2丁目6-14 光翠ビル4F,仙台駅,"ストリート,アーカイブ,ヴィンテージ","平日14:00-19:00 / 休日12:00-19:00",不定休,不明,38.2630,140.8713,,,https://climb.fashionstore.jp/,https://www.instagram.com/climb.sendai/,90年代裏原ブームのアイテムやクリスチャンディオールなどのアーカイブを展開。入手困難なレアアイテムが豊富なマニア向けセレクトショップ。,現金,
西海岸ANCHOR 仙台店,宮城県仙台市青葉区中央2丁目4-5 アルボーレ仙台1F,仙台駅,"ストリート,スポーツヴィンテージ,アメカジ",11:00-20:00,不定休,¥3000~,38.2635,140.8726,,,https://nisikaigan.com/,https://www.instagram.com/anchorsendai/,福岡発の西海岸ANCHOR仙台店。ストリートやスポーツブランドのヴィンテージが充実。カラフルで華やかなアイテムが特徴。,"現金・クレジット",
TOM'S MARKET vintage,宮城県仙台市青葉区中央3丁目8-5 アメ横ビル2F,仙台駅,"アメカジ,ミリタリー,ワーク古着",11:00-18:00,"火曜・水曜",不明,38.2622,140.8758,,,,https://www.instagram.com/toms_market_vintage/,仙台アメ横ビル2Fの老舗古着屋。2022年に再オープン。アメカジ・ミリタリー・ワーク系を中心に状態の良いヴィンテージをリペア済みで展開。,現金,
BIG TIME 仙台,宮城県仙台市青葉区中央2丁目5-10 1F・2F,仙台駅,"スポーツ,アメカジ,ヴィンテージ",11:00-21:00,不定休,¥2000~,38.2632,140.8720,,,https://www.bigtime.jp/,https://www.instagram.com/big_time_sendai/,仙台最大級のヴィンテージショップ。クリスロード商店街内。スポーツ・ジャージ・アメカジ系が特に充実。1F・2Fの2フロア展開。,"現金・クレジット",
フラミンゴ 仙台店,宮城県仙台市青葉区中央2丁目7-15,仙台駅,"アメリカ古着,レディース,リメイク",11:00-20:00,不定休,¥3000~,38.2628,140.8714,,,https://www.flamingo-online.jp/,https://www.instagram.com/flamingo_sendai/,下北沢発の全国チェーン・フラミンゴの仙台店。古着に加えて雑貨・オリジナルブランド・リメイク商品を展開。レディースが特に豊富。,"現金・クレジット・電子マネー",
Top of the Hill 仙台PARCO店,宮城県仙台市青葉区中央1丁目2-3 仙台パルコ本館6F,仙台駅,"セレクト古着,ブランド古着,アウトドアヴィンテージ",10:00-21:00,不定休（パルコに準ずる）,¥5000~,38.2614,140.8800,,,,https://www.instagram.com/topofthehill_sendai/,下北沢・高円寺にも展開する古着チェーンの仙台店。仙台駅直結のパルコ本館6F。セレクトされたブランド古着・アウトドアヴィンテージが揃う。,"現金・クレジット・電子マネー",
Utah（ユタ）,宮城県仙台市青葉区本町2丁目9-16 阿部勝ビル1F,広瀬通駅,"アメリカ古着,ヨーロッパ古着,ヴィンテージ",12:00-20:00,不定休,¥5000~,38.2594,140.8710,,,https://utahltdshop.thebase.in/,https://www.instagram.com/utah_vintage_used_clothing/,2005年創業の仙台を代表する老舗古着屋。セレクトショップのような美しい陳列が特徴。アメリカ買い付けの一点物が揃う。,現金,
IORI clothing by Utah,宮城県仙台市青葉区本町2丁目9-16,広瀬通駅,"レディース,オールドブランド,ヴィンテージ",12:00-20:00,不定休,¥5000~,38.2594,140.8710,,,https://ioribyutah.thebase.in/,https://www.instagram.com/vintage_style_by_iori/,Utahの姉妹店。レディース古着専門で木目と白を基調とした温かみある空間。グッチ・エルメス・ティファニーなどオールドブランドも取扱い。,現金,
biscco（ビスコ）,宮城県仙台市青葉区本町2丁目5-16 1F,広瀬通駅,"メンズ古着,レディース古着,ヴィンテージ",12:00-19:00,不定休,不明,38.2598,140.8720,,,https://www.biscco.jp/,https://www.instagram.com/biscco288/,元・仙台駅東口の「DROP」が本町へ移転。夫婦で営まれるアットホームな古着屋。厳選古着とトレンドをミックスした品揃え。,現金,
SQUAT 仙台店,宮城県仙台市青葉区本町2丁目13-10 菊田屋ビル2F,広瀬通駅,"ヨーロッパヴィンテージ,ミリタリー",11:00-20:00,不定休,不明,38.2588,140.8701,,,https://squat.shop-pro.jp/,https://www.instagram.com/squat_used_clothing/,オーナー自らヨーロッパへ買い付けに行く仙台のヴィンテージ専門店。50〜60年代のレアなヨーロピアンヴィンテージが豊富。山形にも姉妹店あり。,現金,
elie（エリー）,宮城県仙台市青葉区本町2丁目13-10 菊田屋ビル3F,広瀬通駅,"レディース,リメイク古着,ヨーロッパ古着","平日12:00-19:30 / 休日11:00-19:00",不定休,不明,38.2588,140.8701,,,https://ranadel.theshop.jp/,https://www.instagram.com/elie.sendai/,アメリカ・ヨーロッパヴィンテージをリボンやフリルで可愛くリメイクした女性向けセレクト古着屋。シルエットやデザインにこだわる一店。,現金,
me 古着屋,宮城県仙台市青葉区本町2丁目9-8 日宝本町ビル103,広瀬通駅,"ユーロヴィンテージ,アメリカ古着",12:00-19:30,不定休,不明,38.2594,140.8708,,,https://mesendai.thebase.in/,https://www.instagram.com/me_sendai/,2017年オープン。ユーロヴィンテージとアメリカ古着を中心にトレンドを意識した飽きのこない定番ヴィンテージを展開。,現金,
ooooo（オーズ）,宮城県仙台市青葉区本町2丁目14-26 保坂ビル1F,広瀬通駅,"アメリカ古着,ヴィンテージ,ユニセックス","月〜土12:00-22:00 / 日12:00-20:00",不定休,不明,38.2585,140.8699,,,,https://www.instagram.com/ooooo_sendai/,2ヶ月に1度アメリカ買い付けのユニセックスヴィンテージ古着屋。月〜土は22時まで営業する仙台では珍しい深夜型古着屋。,現金,
TRUE VINTAGE.,宮城県仙台市青葉区一番町1丁目6-20 ライトハウスビル102,広瀬通駅,"アメリカ古着,ヴィンテージ,デニム",11:00-20:00,不定休,¥5000~,38.2661,140.8710,,,https://truevintage.jp/,https://www.instagram.com/truevintage_sendai/,2009年創業2019年リニューアル。仙台トップクラスのヴィンテージ専門店。状態の良いリーバイスや革ジャンが多数。芸能人来店実績あり。,"現金・クレジット",
HOWDY（ハウディ）,宮城県仙台市青葉区一番町1丁目12-3,広瀬通駅,"アメリカ古着,アウトドアヴィンテージ,雑貨","平日12:00-20:00 / 休日11:00-19:00",不定休,¥3000~,38.2651,140.8704,,,,https://www.instagram.com/howdy_88/,1991年創業の仙台最古参古着屋。毎月オレゴン州ポートランドへ買い付け。アウトドア系に強く雑貨も豊富。1階にお直し工房も併設。,現金,
MISSION GENERAL STORE,宮城県仙台市青葉区一番町1丁目11-23 2F,広瀬通駅,"アウトドアヴィンテージ,アメリカ古着,70年代",11:00-20:00,不定休,¥5000~,38.2652,140.8705,,,https://mission-gs.shop-pro.jp/,https://www.instagram.com/mission_general_store_/,2024年10月リニューアルオープン。1970〜90年代のアメリカ・ヨーロッパヴィンテージとパタゴニア・ノースフェイスなどアウトドアブランド専門。,"現金・クレジット",
無人古着屋HOPE 一番町店,宮城県仙台市青葉区一番町1丁目14-25 一番町M・Yビル101,広瀬通駅,"アメリカ古着,ヨーロッパ古着,格安古着",24時間営業,なし,¥500~,38.2649,140.8700,,,,https://www.instagram.com/mujinhurugiya_hope/,2023年9月オープンの24時間無人古着屋。仙台一番町店のほか北仙台・八木山にも展開。安価で購入可能。時間を気にせず古着が選べる。,"電子マネー・スマホバーコード決済",
フロリダ 仙台店,宮城県仙台市青葉区一番町3丁目8-8 一番町ステアビル1F,広瀬通駅,"アメリカ古着,ヨーロッパ古着,格安古着","平日12:00-21:00 / 休日11:00-21:00",不定休,¥1000~,38.2638,140.8700,,,https://www.flamingo-online.jp/,https://www.instagram.com/florida_sendai/,フラミンゴの系列店。定番ヴィンテージを手頃な価格で販売。月末「青空市」では全品半額セールを実施する人気イベントあり。,"現金・クレジット",
i my（アイマイ）,宮城県仙台市青葉区一番町3丁目10-3 3F,広瀬通駅,"レディース,レギュラー古着,80年代",不明,不定休,不明,38.2635,140.8699,,,,https://www.instagram.com/i_my_vintage/,一番町3丁目3階のレディース専門古着屋。80年代レギュラー古着が豊富でメンズ兼用アイテムも揃う。,現金,
gripp 仙台,宮城県仙台市青葉区一番町2丁目3-30 壱弐参横丁3号,広瀬通駅,"アメリカ古着,シルバーアクセサリー,リメイク古着",12:30-20:30,不定休,不明,38.2645,140.8704,,,https://gripp0219.thebase.in/,https://www.instagram.com/gripp_sendai/,国外買い付けのシルバーアクセサリーやリメイクレザージャケットなどここでしか手に入らないアイテムを展開。コーディネート提案も実施。,現金,
CAGERATTLERS（CRC）,宮城県仙台市青葉区一番町1丁目8-10 京成壱番町ビル303,広瀬通駅,"レギュラー古着,ヴィンテージ,デザイナーズ",12:00-21:00,不定休,不明,38.2657,140.8708,,,https://cagerattlers.net/,https://www.instagram.com/crc_japan/,2009年オープン。国内外の古着とセレクトブランド・自社ブランドを展開。下北沢でPOP UPも行う仙台の個性派セレクトショップ。,現金,
Green Room（グリーンルーム）仙台,宮城県仙台市青葉区一番町2丁目5-6 3F,広瀬通駅,"アメリカ古着,ヨーロッパ古着",11:00-20:00,不定休,¥2000~,38.2643,140.8702,,,https://greenroom256.thebase.in/,https://www.instagram.com/greenroom256/,創業25年の老舗。アメリカ・ヨーロッパ・国内から仕入れた質の良い古着を学生にも手頃な価格で提供する穴場店舗。外階段からアクセス。,現金,
sega-ru（セガル）,宮城県仙台市青葉区一番町3丁目1-24 3F,広瀬通駅,"アメリカ古着,メンズ,ヴィンテージ",12:00-20:00,不定休,不明,38.2635,140.8703,,,https://segaaru.base.ec/,https://www.instagram.com/segawa708/,2015年オープン。オーナーがアメリカ・国内買い付けしプロによるクリーニング済み。古着に見えないほどクオリティの高い品揃え。,現金,
ShuShuBell（シュシュベル）仙台,宮城県仙台市青葉区国分町1丁目3-13 遠藤ビル1F,広瀬通駅,"アメリカ古着,ヨーロッパ古着,ヴィンテージ","平日・土12:00-20:00 / 日祝11:00-19:00",不定休,¥5000~,38.2661,140.8696,,,https://www.shushubell.shop/,https://www.instagram.com/shushubell/,2008年創業。フランスのアパルトマンをイメージした落ち着いた店内。厳選古着が1万円で購入可能。古着詰め放題イベントが人気。,"現金・クレジット",
ShuShuBell 2（シュシュベル 2）,宮城県仙台市青葉区大町1丁目4-14 LAND B302,広瀬通駅,"メンズ,ヴィンテージ,ミリタリー,レアアイテム","平日・土12:00-20:00 / 日祝11:00-19:00",不定休,¥5000~,38.2645,140.8690,,,https://www.shushubell.shop/,https://www.instagram.com/shushubell_2/,シュシュベルのセレクトメンズ専門店。ヴィンテージリーバイス・エディバウアー・70〜80年代ミリタリーウェアなどレアアイテムが充実。,"現金・クレジット",
Room-9,宮城県仙台市青葉区大町1丁目3-25 4F,広瀬通駅,"アメリカ古着,ヴィンテージ","平日12:00-18:00","土日・不定休",¥3000~,38.2646,140.8691,,,https://www.room-9sendai.com/,https://www.instagram.com/room____9/,「ちょうど良いヴィンテージ」をコンセプトに手頃な価格でヴィンテージ古着を提供。ゆったりとした雰囲気で選べる穴場の大町古着屋。,現金,
ANNA（アンナ）,宮城県仙台市青葉区大町2丁目14-11 ファーストステージ2F,広瀬通駅,"ヨーロッパ古着,レディース,アンティーク,キッズ",12:00-18:00,不定休,不明,38.2630,140.8682,,,https://annavintage.stores.jp/,https://www.instagram.com/anna_antiek/,女優アンナ・カリーナに由来する店名のヨーロッパ古着店。アンティーク食器・フレンチリメイクアイテム・キッズアイテムも展開するユニークな一店。,現金,
BEAGLE USED & VINTAGE,宮城県仙台市青葉区立町21-1,広瀬通駅,"レギュラー古着,ヴィンテージ,雑貨","平日13:00-19:00 / 休日12:00-19:00",不定休,¥3000~,38.2628,140.8668,,,https://beaglesendai.thebase.in/,https://www.instagram.com/beagle_sendai/,西公園近くの穴場古着屋。アメリカ買い付けの質の良い古着を展開。1万円以下が多くコンディション良好。,現金,
ブランド古着専門店LIFE 仙台中倉店,宮城県仙台市若林区中倉3丁目17-57,仙台駅,"ブランド古着,ヴィンテージ,ハイブランド",11:00-19:00,なし,¥5000~,38.2448,140.9008,,,https://lifeonline.jp/,https://www.instagram.com/life_shop_official_/,140坪の大型店。国道4号バイパス沿いで駐車場20台完備。パタゴニア・ラルフローレン・リーバイスからシャネル・エルメスまでブランド古着が豊富。宅配買取も実施。,"現金・クレジット・電子マネー",あり（20台）
ブランド古着専門店LIFE 六丁の目店,宮城県仙台市若林区六丁の目東町6-25,六丁の目駅,"スニーカー,ストリートブランド,ブランド古着",11:00-19:00,なし,¥5000~,38.2454,140.9138,,,https://lifeonline.jp/,https://www.instagram.com/life_shop_official2/,130坪の大型店。ドンキホーテ六丁の目店敷地内。ステューシー・チャンピオン・コンバース・ノースフェイス・ゴローズなどオールドアイテムに特化。,"現金・クレジット・電子マネー",あり
古着屋BLUE VACATION,宮城県石巻市開北1丁目1-12 ハイツE,石巻駅,"US古着,EURO古着,リメイク古着",11:00-20:00,水曜,不明,38.4263,141.3002,,,https://bluevacation.theshop.jp/,https://www.instagram.com/blue_vacation.ishinomaki/,石巻市の古着シーンを牽引する地元密着型ヴィンテージショップ。US古着・EURO古着・リメイク古着・オリジナルアイテムを展開。石巻駅から952m。,現金,あり
